[{"id": "mVhkriEZ_lvqCLwzjm6etA", "alias": "wonder-chop-chicago", "name": "Wonder Chop", "image_url": "https://s3-media1.fl.yelpcdn.com/bphoto/pRYtVqRLWy-VnqSgWEeUGw/o.jpg", "is_closed": "false", "url": "https://www.yelp.com/biz/wonder-chop-chicago?adjust_creative=cfQwRo8kWpaId_m0BwyL2g&utm_campaign=yelp_api_v3&utm_medium=api_v3_business_search&utm_source=cfQwRo8kWpaId_m0BwyL2g", "review_count": 53, "categories": [{"alias": "chinese", "title": "Chinese"}, {"alias": "japanese", "title": "Japanese"}, {"alias": "sushi", "title": "Sushi Bars"}], "rating": 5, "coordinates": {"latitude": 41.92522, "longitude": -87.68845}, "transactions": [], "location": {"address1": "2418 W Fullerton Ave", "address2": "null", "address3": "", "city": "Chicago", "zip_code": "60647", "country": "US", "state": "IL", "display_address": ["2418 W Fullerton Ave", "Chicago, IL 60647"]}, "phone": "+17733846499", "display_phone": "(773) 384-6499", "distance": 2389.128343626292}, {"id": "Qz5uN801Hx2cFrfI7sggoQ", "alias": "mak-restaurant-chicago", "name": "MAK Restaurant", "image_url": "https://s3-media4.fl.yelpcdn.com/bphoto/GJQCgfAFWnNx_iqL5hHEUA/o.jpg", "is_closed": "false", "url": "https://www.yelp.com/biz/mak-restaurant-chicago?adjust_creative=cfQwRo8kWpaId_m0BwyL2g&utm_campaign=yelp_api_v3&utm_medium=api_v3_business_search&utm_source=cfQwRo8kWpaId_m0BwyL2g", "review_count": 259, "categories": [{"alias": "asianfusion", "title": "Asian Fusion"}, {"alias": "chinese", "title": "Chinese"}], "rating": 4, "coordinates": {"latitude": 41.9032611, "longitude": -87.6759818}, "transactions": ["pickup", "delivery"], "price": "$$", "location": {"address1": "1924 W Division St", "address2": "", "address3": "", "city": "Chicago", "zip_code": "60622", "country": "US", "state": "IL", "display_address": ["1924 W Division St", "Chicago, IL 60622"]}, "phone": "+17737726251", "display_phone": "(773) 772-6251", "distance": 257.5345056297062}, {"id": "3NV3TTsKGqW1WEbEQv_yBA", "alias": "chengdu-impression-chicago", "name": "Chengdu Impression", "image_url": "https://s3-media2.fl.yelpcdn.com/bphoto/LztKqFHml0pxe3or_-o3Hw/o.jpg", "is_closed": "false", "url": "https://www.yelp.com/biz/chengdu-impression-chicago?adjust_creative=cfQwRo8kWpaId_m0BwyL2g&utm_campaign=yelp_api_v3&utm_medium=api_v3_business_search&utm_source=cfQwRo8kWpaId_m0BwyL2g", "review_count": 622, "categories": [{"alias": "szechuan", "title": "Szechuan"}], "rating": 4, "coordinates": {"latitude": 41.9286079, "longitude": -87.648514}, "transactions": ["pickup", "delivery"], "price": "$$", "location": {"address1": "2545 N Halsted St", "address2": "", "address3": "", "city": "Chicago", "zip_code": "60614", "country": "US", "state": "IL", "display_address": ["2545 N Halsted St", "Chicago, IL 60614"]}, "phone": "+17734776256", "display_phone": "(773) 477-6256", "distance": 3557.5360403146788}, {"id": "RBRmn-lk0R6bgvqXeNqT3w", "alias": "shanghai-inn-chicago", "name": "Shanghai Inn", "image_url": "https://s3-media4.fl.yelpcdn.com/bphoto/XNxQpfA8mEhjXfL65Ko3GQ/o.jpg", "is_closed": "false", "url": "https://www.yelp.com/biz/shanghai-inn-chicago?adjust_creative=cfQwRo8kWpaId_m0BwyL2g&utm_campaign=yelp_api_v3&utm_medium=api_v3_business_search&utm_source=cfQwRo8kWpaId_m0BwyL2g", "review_count": 303, "categories": [{"alias": "chinese", "title": "Chinese"}], "rating": 4, "coordinates": {"latitude": 41.967647, "longitude": -87.679002}, "transactions": ["pickup", "delivery"], "price": "$$", "location": {"address1": "4723 N Damen Ave", "address2": "", "address3": "", "city": "Chicago", "zip_code": "60625", "country": "US", "state": "IL", "display_address": ["4723 N Damen Ave", "Chicago, IL 60625"]}, "phone": "+17735613275", "display_phone": "(773) 561-3275", "distance": 6949.065851531525}, {"id": "HP3zkN0SvoDzQiOdiMAKLw", "alias": "cheng-chopsticks-chicago", "name": "Cheng Chopsticks", "image_url": "https://s3-media3.fl.yelpcdn.com/bphoto/w2xGpdwU-YQvU2gkqkVhxw/o.jpg", "is_closed": "false", "url": "https://www.yelp.com/biz/cheng-chopsticks-chicago?adjust_creative=cfQwRo8kWpaId_m0BwyL2g&utm_campaign=yelp_api_v3&utm_medium=api_v3_business_search&utm_source=cfQwRo8kWpaId_m0BwyL2g", "review_count": 141, "categories": [{"alias": "chinese", "title": "Chinese"}], "rating": 3.5, "coordinates": {"latitude": 41.91716, "longitude": -87.704205}, "transactions": ["pickup", "delivery"], "price": "$", "location": {"address1": "3054 W Armitage Ave", "address2": "", "address3": "", "city": "Chicago", "zip_code": "60647", "country": "US", "state": "IL", "display_address": ["3054 W Armitage Ave", "Chicago, IL 60647"]}, "phone": "+17733841668", "display_phone": "(773) 384-1668", "distance": 2562.72584332364}, {"id": "oSI2djSdl7KjNGwb7PDWCg", "alias": "lao-peng-you-chicago", "name": "Lao Peng You", "image_url": "https://s3-media3.fl.yelpcdn.com/bphoto/beLCg97DzfpRGCZO10wC0A/o.jpg", "is_closed": "false", "url": "https://www.yelp.com/biz/lao-peng-you-chicago?adjust_creative=cfQwRo8kWpaId_m0BwyL2g&utm_campaign=yelp_api_v3&utm_medium=api_v3_business_search&utm_source=cfQwRo8kWpaId_m0BwyL2g", "review_count": 71, "categories": [{"alias": "chinese", "title": "Chinese"}], "rating": 4, "coordinates": {"latitude": 41.89610667, "longitude": -87.67786167}, "transactions": ["pickup", "delivery"], "price": "$$", "location": {"address1": "2020 W Chicago Ave", "address2": "", "address3": "null", "city": "Chicago", "zip_code": "60622", "country": "US", "state": "IL", "display_address": ["2020 W Chicago Ave", "Chicago, IL 60622"]}, "phone": "+18722068624", "display_phone": "(872) 206-8624", "distance": 1010.1354390357178}, {"id": "E-gZcYNh9rSN7viJ_I9kzQ", "alias": "xian-dynasty-cuisine-chicago", "name": "Xi'an Dynasty Cuisine", "image_url": "https://s3-media2.fl.yelpcdn.com/bphoto/2y97AFq1eArX0lCUUBzJIg/o.jpg", "is_closed": "false", "url": "https://www.yelp.com/biz/xian-dynasty-cuisine-chicago?adjust_creative=cfQwRo8kWpaId_m0BwyL2g&utm_campaign=yelp_api_v3&utm_medium=api_v3_business_search&utm_source=cfQwRo8kWpaId_m0BwyL2g", "review_count": 71, "categories": [{"alias": "chinese", "title": "Chinese"}], "rating": 4.5, "coordinates": {"latitude": 41.92228, "longitude": -87.64465}, "transactions": ["pickup", "delivery"], "price": "$$", "location": {"address1": "2218 N Lincoln Ave", "address2": "null", "address3": "", "city": "Chicago", "zip_code": "60614", "country": "US", "state": "IL", "display_address": ["2218 N Lincoln Ave", "Chicago, IL 60614"]}, "phone": "+17739047253", "display_phone": "(773) 904-7253", "distance": 3335.809449959929}, {"id": "4-uKJdGyT0iZmu3rbSDwBw", "alias": "great-sea-restaurant-chicago", "name": "Great Sea Restaurant", "image_url": "https://s3-media2.fl.yelpcdn.com/bphoto/7CEbreU93HOBwlA49elgvA/o.jpg", "is_closed": "false", "url": "https://www.yelp.com/biz/great-sea-restaurant-chicago?adjust_creative=cfQwRo8kWpaId_m0BwyL2g&utm_campaign=yelp_api_v3&utm_medium=api_v3_business_search&utm_source=cfQwRo8kWpaId_m0BwyL2g", "review_count": 709, "categories": [{"alias": "chinese", "title": "Chinese"}, {"alias": "chicken_wings", "title": "Chicken Wings"}], "rating": 4, "coordinates": {"latitude": 41.9683111314671, "longitude": -87.7106371012279}, "transactions": ["pickup", "delivery"], "price": "$$", "location": {"address1": "3253 W Lawrence Ave", "address2": "", "address3": "", "city": "Chicago", "zip_code": "60625", "country": "US", "state": "IL", "display_address": ["3253 W Lawrence Ave", "Chicago, IL 60625"]}, "phone": "+17734789129", "display_phone": "(773) 478-9129", "distance": 7530.205724465093}, {"id": "s1JPKx5lAeoq7QU8pmN-5A", "alias": "minghin-cuisine-chicago-3", "name": "MingHin Cuisine", "image_url": "https://s3-media2.fl.yelpcdn.com/bphoto/mFhgIM3zj5ztQPBKz0zTdg/o.jpg", "is_closed": "false", "url": "https://www.yelp.com/biz/minghin-cuisine-chicago-3?adjust_creative=cfQwRo8kWpaId_m0BwyL2g&utm_campaign=yelp_api_v3&utm_medium=api_v3_business_search&utm_source=cfQwRo8kWpaId_m0BwyL2g", "review_count": 2240, "categories": [{"alias": "seafood", "title": "Seafood"}, {"alias": "dimsum", "title": "Dim Sum"}, {"alias": "cantonese", "title": "Cantonese"}], "rating": 4, "coordinates": {"latitude": 41.8532564325305, "longitude": -87.6349026829699}, "transactions": ["pickup", "delivery"], "price": "$$", "location": {"address1": "2168 S Archer Ave", "address2": "", "address3": "", "city": "Chicago", "zip_code": "60616", "country": "US", "state": "IL", "display_address": ["2168 S Archer Ave", "Chicago, IL 60616"]}, "phone": "+13128081999", "display_phone": "(312) 808-1999", "distance": 6775.0005921381735}, {"id": "c-33j2eSYNCppwBVLUFpzg", "alias": "yummy-yummy-asian-cuisine-chicago", "name": "Yummy Yummy Asian Cuisine", "image_url": "https://s3-media1.fl.yelpcdn.com/bphoto/wZBZHmz8HJzTgAy6AEhPLQ/o.jpg", "is_closed": "false", "url": "https://www.yelp.com/biz/yummy-yummy-asian-cuisine-chicago?adjust_creative=cfQwRo8kWpaId_m0BwyL2g&utm_campaign=yelp_api_v3&utm_medium=api_v3_business_search&utm_source=cfQwRo8kWpaId_m0BwyL2g", "review_count": 648, "categories": [{"alias": "chinese", "title": "Chinese"}, {"alias": "juicebars", "title": "Juice Bars & Smoothies"}], "rating": 4, "coordinates": {"latitude": 41.935016, "longitude": -87.644032}, "transactions": ["pickup", "delivery"], "price": "$$", "location": {"address1": "2901 N Broadway St", "address2": "null", "address3": "", "city": "Chicago", "zip_code": "60657", "country": "US", "state": "IL", "display_address": ["2901 N Broadway St", "Chicago, IL 60657"]}, "phone": "+17735256677", "display_phone": "(773) 525-6677", "distance": 4337.2090803946185}, {"id": "0PPM0wxA2r8XVM8vbMm9Pw", "alias": "mccb-chicago-\u65f6\u5c1a\u98df\u8c31-chicago", "name": "MCCB Chicago \u65f6\u5c1a\u98df\u8c31", "image_url": "https://s3-media2.fl.yelpcdn.com/bphoto/N6XozlzESAjPOFYoJQdHWQ/o.jpg", "is_closed": "false", "url": "https://www.yelp.com/biz/mccb-chicago-%E6%97%B6%E5%B0%9A%E9%A3%9F%E8%B0%B1-chicago?adjust_creative=cfQwRo8kWpaId_m0BwyL2g&utm_campaign=yelp_api_v3&utm_medium=api_v3_business_search&utm_source=cfQwRo8kWpaId_m0BwyL2g", "review_count": 418, "categories": [{"alias": "chinese", "title": "Chinese"}], "rating": 4.5, "coordinates": {"latitude": 41.8538027693794, "longitude": -87.6336866427383}, "transactions": ["pickup", "delivery"], "price": "$$", "location": {"address1": "2138 South Archer Ave", "address2": "null", "address3": "", "city": "Chicago", "zip_code": "60616", "country": "US", "state": "IL", "display_address": ["2138 South Archer Ave", "Chicago, IL 60616"]}, "phone": "+13128810168", "display_phone": "(312) 881-0168", "distance": 6776.994202426066}, {"id": "7FRba2yDi9uWlSBvahRmEw", "alias": "minghin-cuisine-chicago-7", "name": "MingHin Cuisine", "image_url": "https://s3-media4.fl.yelpcdn.com/bphoto/zhjqo0Bnks76XmQtgO6yaA/o.jpg", "is_closed": "false", "url": "https://www.yelp.com/biz/minghin-cuisine-chicago-7?adjust_creative=cfQwRo8kWpaId_m0BwyL2g&utm_campaign=yelp_api_v3&utm_medium=api_v3_business_search&utm_source=cfQwRo8kWpaId_m0BwyL2g", "review_count": 853, "categories": [{"alias": "dimsum", "title": "Dim Sum"}, {"alias": "cantonese", "title": "Cantonese"}, {"alias": "asianfusion", "title": "Asian Fusion"}], "rating": 4, "coordinates": {"latitude": 41.8851133316306, "longitude": -87.6191340577136}, "transactions": ["pickup", "delivery"], "price": "$$", "location": {"address1": "333 E Benton Pl", "address2": "Ste 300", "address3": "", "city": "Chicago", "zip_code": "60601", "country": "US", "state": "IL", "display_address": ["333 E Benton Pl", "Ste 300", "Chicago, IL 60601"]}, "phone": "+13122281333", "display_phone": "(312) 228-1333", "distance": 5340.296847462894}, {"id": "4xQ7x-Td1nFshx7J0Bd6pw", "alias": "peking-mandarin-chicago", "name": "Peking Mandarin", "image_url": "https://s3-media1.fl.yelpcdn.com/bphoto/7XyIIbxwIeoRhdTLrSQNYQ/o.jpg", "is_closed": "false", "url": "https://www.yelp.com/biz/peking-mandarin-chicago?adjust_creative=cfQwRo8kWpaId_m0BwyL2g&utm_campaign=yelp_api_v3&utm_medium=api_v3_business_search&utm_source=cfQwRo8kWpaId_m0BwyL2g", "review_count": 169, "categories": [{"alias": "chinese", "title": "Chinese"}, {"alias": "korean", "title": "Korean"}], "rating": 4, "coordinates": {"latitude": 41.9682451, "longitude": -87.7151227}, "transactions": ["delivery"], "price": "$", "location": {"address1": "3459 W Lawrence Ave", "address2": "", "address3": "", "city": "Chicago", "zip_code": "60625", "country": "US", "state": "IL", "display_address": ["3459 W Lawrence Ave", "Chicago, IL 60625"]}, "phone": "+17734785338", "display_phone": "(773) 478-5338", "distance": 7687.312485978435}, {"id": "T_egMuf7xJHLdldzPqOaSQ", "alias": "qing-xiang-yuan-dumplings-chicago-3", "name": "Qing Xiang Yuan Dumplings", "image_url": "https://s3-media2.fl.yelpcdn.com/bphoto/Nko67mwukEvP86ompmu8kw/o.jpg", "is_closed": "false", "url": "https://www.yelp.com/biz/qing-xiang-yuan-dumplings-chicago-3?adjust_creative=cfQwRo8kWpaId_m0BwyL2g&utm_campaign=yelp_api_v3&utm_medium=api_v3_business_search&utm_source=cfQwRo8kWpaId_m0BwyL2g", "review_count": 950, "categories": [{"alias": "bbq", "title": "Barbeque"}, {"alias": "dimsum", "title": "Dim Sum"}], "rating": 4, "coordinates": {"latitude": 41.85505, "longitude": -87.63219}, "transactions": ["pickup", "delivery"], "price": "$$", "location": {"address1": "2002 S Wentworth Ave", "address2": "Ste 103", "address3": "", "city": "Chicago", "zip_code": "60616", "country": "US", "state": "IL", "display_address": ["2002 S Wentworth Ave", "Ste 103", "Chicago, IL 60616"]}, "phone": "+13127991118", "display_phone": "(312) 799-1118", "distance": 6730.061866551016}, {"id": "rd4NrLcEOKBVaGRIkC35NQ", "alias": "takie-outit-chicago-2", "name": "Takie Outit", "image_url": "https://s3-media2.fl.yelpcdn.com/bphoto/LewUyBFmX9wFJIy3zI-rzA/o.jpg", "is_closed": "false", "url": "https://www.yelp.com/biz/takie-outit-chicago-2?adjust_creative=cfQwRo8kWpaId_m0BwyL2g&utm_campaign=yelp_api_v3&utm_medium=api_v3_business_search&utm_source=cfQwRo8kWpaId_m0BwyL2g", "review_count": 197, "categories": [{"alias": "chinese", "title": "Chinese"}], "rating": 3.5, "coordinates": {"latitude": 41.89611, "longitude": -87.68086}, "transactions": ["pickup", "delivery"], "price": "$", "location": {"address1": "2132 W Chicago Ave", "address2": "null", "address3": "", "city": "Chicago", "zip_code": "60622", "country": "US", "state": "IL", "display_address": ["2132 W Chicago Ave", "Chicago, IL 60622"]}, "phone": "+17732521880", "display_phone": "(773) 252-1880", "distance": 1039.783635638761}, {"id": "KomhK0JD5cleEW55YTw7MQ", "alias": "sun-wah-bar-b-que-chicago-2", "name": "Sun Wah Bar-B-Que", "image_url": "https://s3-media2.fl.yelpcdn.com/bphoto/IQVidynQVU10w9IEcmiOdQ/o.jpg", "is_closed": "false", "url": "https://www.yelp.com/biz/sun-wah-bar-b-que-chicago-2?adjust_creative=cfQwRo8kWpaId_m0BwyL2g&utm_campaign=yelp_api_v3&utm_medium=api_v3_business_search&utm_source=cfQwRo8kWpaId_m0BwyL2g", "review_count": 1604, "categories": [{"alias": "chinese", "title": "Chinese"}, {"alias": "bbq", "title": "Barbeque"}], "rating": 4, "coordinates": {"latitude": 41.9739359, "longitude": -87.6592371}, "transactions": ["delivery"], "price": "$$", "location": {"address1": "5039 N Broadway", "address2": "", "address3": "", "city": "Chicago", "zip_code": "60640", "country": "US", "state": "IL", "display_address": ["5039 N Broadway", "Chicago, IL 60640"]}, "phone": "+17737691254", "display_phone": "(773) 769-1254", "distance": 7799.637864535542}, {"id": "zlvkbqkgYun3sqs02Sqyig", "alias": "house-of-wah-sun-chicago", "name": "House of Wah Sun", "image_url": "https://s3-media4.fl.yelpcdn.com/bphoto/YpzfU8t1xLKQFi6Nef8N-w/o.jpg", "is_closed": "false", "url": "https://www.yelp.com/biz/house-of-wah-sun-chicago?adjust_creative=cfQwRo8kWpaId_m0BwyL2g&utm_campaign=yelp_api_v3&utm_medium=api_v3_business_search&utm_source=cfQwRo8kWpaId_m0BwyL2g", "review_count": 308, "categories": [{"alias": "chinese", "title": "Chinese"}], "rating": 4, "coordinates": {"latitude": 41.9601, "longitude": -87.68253}, "transactions": ["pickup", "delivery"], "price": "$$", "location": {"address1": "4319 N Lincoln Ave", "address2": "", "address3": "", "city": "Chicago", "zip_code": "60618", "country": "US", "state": "IL", "display_address": ["4319 N Lincoln Ave", "Chicago, IL 60618"]}, "phone": "+17734770800", "display_phone": "(773) 477-0800", "distance": 6129.371995650396}, {"id": "G72-HHDun9xx4lxejF8NEw", "alias": "mr-dumpling-chicago-2", "name": "Mr Dumpling", "image_url": "https://s3-media4.fl.yelpcdn.com/bphoto/TNXjXhu0f_mTk1bRs8ediw/o.jpg", "is_closed": "false", "url": "https://www.yelp.com/biz/mr-dumpling-chicago-2?adjust_creative=cfQwRo8kWpaId_m0BwyL2g&utm_campaign=yelp_api_v3&utm_medium=api_v3_business_search&utm_source=cfQwRo8kWpaId_m0BwyL2g", "review_count": 29, "categories": [{"alias": "chinese", "title": "Chinese"}], "rating": 4.5, "coordinates": {"latitude": 41.927788, "longitude": -87.641424}, "transactions": ["pickup", "delivery"], "location": {"address1": "2485 N Clark St", "address2": "null", "address3": "", "city": "Chicago", "zip_code": "60614", "country": "US", "state": "IL", "display_address": ["2485 N Clark St", "Chicago, IL 60614"]}, "phone": "+17733601864", "display_phone": "(773) 360-1864", "distance": 3928.24611967183}, {"id": "Td-uLb5BUifr7Su-eKKqyw", "alias": "lao-sze-chuan-chicago-5", "name": "Lao Sze Chuan", "image_url": "https://s3-media4.fl.yelpcdn.com/bphoto/ZZrEIMeAhwzMaG17gfuu9Q/o.jpg", "is_closed": "false", "url": "https://www.yelp.com/biz/lao-sze-chuan-chicago-5?adjust_creative=cfQwRo8kWpaId_m0BwyL2g&utm_campaign=yelp_api_v3&utm_medium=api_v3_business_search&utm_source=cfQwRo8kWpaId_m0BwyL2g", "review_count": 879, "categories": [{"alias": "szechuan", "title": "Szechuan"}, {"alias": "dimsum", "title": "Dim Sum"}], "rating": 3.5, "coordinates": {"latitude": 41.8914408, "longitude": -87.6243185}, "transactions": ["pickup", "delivery"], "price": "$$", "location": {"address1": "520 N Michigan Ave", "address2": "Ste 420", "address3": "", "city": "Chicago", "zip_code": "60611", "country": "US", "state": "IL", "display_address": ["520 N Michigan Ave", "Ste 420", "Chicago, IL 60611"]}, "phone": "+13125950888", "display_phone": "(312) 595-0888", "distance": 4631.736113029684}]